City_ID,City,Lat,Lng,Max Temp,Humidity,Cloudiness,Wind Speed,Country,Date
0,ushuaia,-54.8,-68.3,288.96,44,40,4.63,AR,1680554532
1,port moresby,-9.4431,147.1797,296.83,100,40,3.09,PG,1680554603
2,butaritari,3.0707,172.7902,301.01,80,97,8.63,KI,1680554603
3,new norfolk,-42.7826,147.0587,284.1,79,100,1.22,AU,1680554603
4,rikitea,-23.1203,-134.9692,299.68,81,90,6.33,PF,1680554454
5,vaini,-21.2,-175.2,300.24,78,20,4.12,TO,1680554603
6,urucara,-2.5364,-57.76,299.86,90,76,0.58,BR,1680554604
7,pevek,69.7008,170.3133,245.09,95,45,3.24,RU,1680554604
8,kodiak,57.79,-152.4072,273.88,93,100,2.57,US,1680554604
9,provideniya,64.3833,-173.3,260.78,88,88,3.54,RU,1680554604
10,mataura,-46.1927,168.8643,287.86,76,89,1.33,NZ,1680554605
11,coihaique,-45.5752,-72.0662,288.49,58,75,2.06,CL,1680554605
12,torbay,47.6666,-52.7314,273.92,75,75,10.29,CA,1680554605
13,nikolskoye,59.7035,30.7861,273.1,95,100,3.64,RU,1680554605
14,arenys de mar,41.5819,2.5494,287.17,76,12,3.56,ES,1680554605
15,punta arenas,-53.15,-70.9167,288.16,67,75,10.29,CL,1680554606
16,college,64.8569,-147.8028,271.52,66,20,5.14,US,1680554606
17,tiksi,71.6872,128.8694,259.98,95,93,2.57,RU,1680554606
18,kavaratti,10.5669,72.642,300.88,69,37,4.7,IN,1680554606
19,kununurra,-15.7667,128.7333,298.14,88,75,2.06,AU,1680554606
20,touros,-5.1989,-35.4608,299.41,76,83,3.4,BR,1680554607
21,berlevag,70.8578,29.0864,274.15,64,0,10.29,NO,1680554607
22,qaanaaq,77.484,-69.3632,250.81,75,9,2.05,GL,1680554607
23,bambous virieux,-20.3428,57.7575,298.83,88,20,1.54,MU,1680554608
24,khani,41.9563,42.9566,278.91,85,96,2.22,GE,1680554608
25,aswan,24.0934,32.907,298.76,12,0,1.54,EG,1680554608
26,huarmey,-10.0681,-78.1522,300.42,71,98,3.4,PE,1680554608
27,waounde,15.2637,-12.8682,307.48,5,15,4.1,SN,1680554608
28,simpang,-1.2667,104.0833,296.54,97,100,0.78,ID,1680554609
29,hermanus,-34.4187,19.2345,289.88,83,22,0.52,ZA,1680554609
30,bredasdorp,-34.5322,20.0403,289.32,81,28,1.14,ZA,1680554609
31,homer,59.6425,-151.5483,275.08,65,100,2.68,US,1680554609
32,havoysund,70.9963,24.6622,274.28,93,81,9.51,NO,1680554609
33,razole,16.4833,81.8333,299.71,85,68,2.53,IN,1680554610
34,geraldton,-28.7667,114.6,292.38,82,45,4.12,AU,1680554610
35,avarua,-21.2078,-159.775,300.18,61,98,3.6,CK,1680554610
36,yala,6.3333,101.25,295.59,89,87,1.12,TH,1680554610
37,tasiilaq,65.6145,-37.6368,270.24,87,100,2.17,GL,1680554610
38,clyde river,70.4692,-68.5914,253.28,71,0,3.6,CA,1680554611
39,hirara,24.8,125.2833,294.07,77,75,4.12,JP,1680554611
40,bluff,-46.6,168.3333,288.04,75,91,5.93,NZ,1680554611
41,souillac,-20.5167,57.5167,298.36,88,20,1.54,MU,1680554611
42,busselton,-33.65,115.3333,288.53,79,24,2.86,AU,1680554611
43,benxi,41.2886,123.765,279.33,47,100,1.78,CN,1680554611
44,visnes,59.3556,5.2242,276.6,86,0,3.09,NO,1680554612
45,bandar-e lengeh,26.5579,54.8807,294.6,59,0,3.78,IR,1680554612
46,ballina,-28.8667,153.5667,291.36,89,97,4.98,AU,1680554612
47,albany,42.6001,-73.9662,290.5,31,72,2.68,US,1680554612
48,buluang,13.3068,123.3425,296.22,93,53,1.74,PH,1680554612
49,kapaa,22.0752,-159.319,298.14,82,0,4.63,US,1680554612
50,tautira,-17.7333,-149.15,300.89,71,38,1.95,PF,1680554612
51,bethel,41.3712,-73.414,288.72,43,0,5.14,US,1680554612
52,chokurdakh,70.6333,147.9167,258.1,96,96,4.26,RU,1680554613
53,botou,38.0667,116.5667,281.92,79,100,9.04,CN,1680554613
54,whitehorse,60.7161,-135.0538,270.43,52,40,1.03,CA,1680554613
55,bugarama,-2.8706,30.5281,288.02,96,100,0.64,TZ,1680554613
56,vera cruz,-12.6333,-41.0333,300.63,43,100,2.87,BR,1680554465
57,nemuro,43.3236,145.575,274.38,62,3,3.2,JP,1680554613
58,port elizabeth,-33.918,25.5701,291.31,84,0,8.75,ZA,1680554613
59,cidreira,-30.1811,-50.2056,295.84,72,27,6.18,BR,1680554613
60,stokmarknes,68.5646,14.9108,277.13,81,75,7.2,NO,1680554614
61,bira,49.0,132.4667,273.83,50,84,5.27,RU,1680554614
62,porto belo,-27.1578,-48.5531,297.12,73,0,5.62,BR,1680554614
63,dunedin,-45.8742,170.5036,288.04,73,76,2.68,NZ,1680554614
64,hami,42.8,93.45,273.69,69,100,5.87,CN,1680554614
65,bloomington,44.8408,-93.2983,280.03,62,75,3.6,US,1680554508
66,marshall,34.3834,-86.3333,290.99,91,100,2.06,US,1680554402
67,victoria,22.2855,114.1577,297.01,95,89,1.34,HK,1680554614
68,hualmay,-11.0964,-77.6139,299.72,72,88,4.14,PE,1680554614
69,fortuna,40.5982,-124.1573,282.55,74,83,3.13,US,1680554615
70,santa maria,-29.6842,-53.8069,301.76,42,0,2.06,BR,1680554615
71,severo-kurilsk,50.6789,156.125,273.17,91,77,6.31,RU,1680554615
72,barrow,71.2906,-156.7887,256.16,85,100,5.66,US,1680554615
73,vigrestad,58.5667,5.7,275.97,77,100,0.45,NO,1680554615
74,duku,11.2361,4.9073,305.32,9,28,1.1,NG,1680554615
75,hilo,19.7297,-155.09,298.86,74,100,2.68,US,1680554616
76,asau,46.4333,26.4,276.66,90,100,2.54,RO,1680554616
77,dikson,73.5069,80.5464,245.66,99,100,4.99,RU,1680554616
78,saint-philippe,-21.3585,55.7679,296.92,81,100,4.74,RE,1680554616
79,muros,42.7762,-9.0603,286.95,87,100,3.81,ES,1680554616
80,luena,-11.7833,19.9167,290.15,97,100,1.57,AO,1680554616
81,leningradskiy,69.3833,178.4167,246.49,91,8,1.31,RU,1680554616
82,upernavik,72.7868,-56.1549,247.89,96,60,1.79,GL,1680554616
83,tucuman,-26.8241,-65.2226,296.15,88,75,2.57,AR,1680554380
84,faanui,-16.4833,-151.75,301.02,71,46,3.1,PF,1680554617
85,nouakchott,18.0858,-15.9785,303.11,41,12,7.41,MR,1680554556
86,padang,-0.9492,100.3543,297.87,87,100,1.23,ID,1680554617
87,kalmunai,7.4167,81.8167,298.66,84,0,2.54,LK,1680554617
88,altamont,42.2068,-121.7372,275.87,54,75,8.23,US,1680554617
89,cayenne,4.9333,-52.3333,301.17,65,20,5.14,GF,1680554412
90,hobart,-42.8794,147.3294,284.29,91,75,2.06,AU,1680554617
91,vardo,70.3705,31.1107,271.14,80,100,13.89,NO,1680554617
92,lavrentiya,65.5833,-171.0,258.27,85,96,3.57,RU,1680554617
93,sovetskaya gavan,48.9723,140.2878,275.18,88,100,3.14,RU,1680554618
94,sept-iles,50.2001,-66.3821,272.62,60,75,6.17,CA,1680554403
95,port blair,11.6667,92.75,300.17,78,20,1.03,IN,1680554618
96,mount gambier,-37.8333,140.7667,283.22,95,100,1.32,AU,1680554618
97,killybegs,54.6333,-8.45,282.18,84,100,7.3,IE,1680554618
98,garowe,8.4054,48.4845,298.92,66,69,6.53,SO,1680554618
99,coos bay,43.3665,-124.2179,280.5,87,100,2.57,US,1680554442
100,fort-shevchenko,44.5086,50.263,281.44,83,64,1.42,KZ,1680554618
101,doha,25.2867,51.5333,294.14,50,0,6.17,QA,1680554506
102,bageshwar,29.85,79.7667,285.76,69,86,1.76,IN,1680554619
103,kalangala,-0.3089,32.225,291.79,85,89,8.26,UG,1680554619
104,narsaq,60.9167,-46.05,281.27,80,100,3.18,GL,1680554619
105,mabaruma,8.2,-59.7833,300.63,66,64,3.43,GY,1680554619
106,vao,-22.6667,167.4833,298.75,83,63,4.76,NC,1680554619
107,lakatoro,-16.0999,167.4164,301.4,76,76,3.96,VU,1680554619
108,yamoussoukro,6.8206,-5.2767,301.09,78,0,1.03,CI,1680554620
109,atuona,-9.8,-139.0333,299.77,83,94,7.2,PF,1680554620
110,storsteinnes,69.2408,19.2344,275.51,99,100,2.35,NO,1680554620
111,ponta do sol,32.6667,-17.1,291.5,63,38,4.8,PT,1680554620
112,eatonton,33.3268,-83.3885,292.04,83,100,2.31,US,1680554455
113,arraial do cabo,-22.9661,-42.0278,299.13,65,40,4.63,BR,1680554620
114,ayagoz,47.9714,80.4392,270.68,38,0,7.53,KZ,1680554620
115,ucluelet,48.9329,-125.5528,281.32,74,5,1.34,CA,1680554620
116,khatanga,71.9667,102.5,246.23,96,98,4.37,RU,1680554621
117,turkan,40.3639,50.215,280.25,93,40,2.06,AZ,1680554621
118,kavieng,-2.5744,150.7967,300.48,76,100,1.88,PG,1680554621
119,anadyr,64.75,177.4833,247.59,75,0,3.0,RU,1680554621
120,tigil,57.8,158.6667,264.85,88,100,1.05,RU,1680554621
121,lao cai,22.4833,103.95,296.27,69,62,0.47,VN,1680554622
122,san andres,12.5847,-81.7006,304.16,58,20,6.17,CO,1680554622
123,sioux lookout,50.1001,-91.917,270.19,50,40,3.6,CA,1680554448
124,laguna,38.421,-121.4238,287.75,30,0,7.72,US,1680554593
125,okhotsk,59.3833,143.3,261.9,90,100,2.59,RU,1680554622
126,thompson,55.7435,-97.8558,262.24,48,20,1.03,CA,1680554622
127,nishihara,26.1842,127.7558,293.18,64,40,6.69,JP,1680554623
128,dongsheng,39.8161,109.9776,273.0,99,100,5.37,CN,1680554623
129,bakov nad jizerou,50.4823,14.9415,275.28,63,3,1.93,CZ,1680554623
130,hobyo,5.3505,48.5268,301.46,72,35,6.48,SO,1680554623
131,camacha,33.0833,-16.3333,288.83,67,40,9.26,PT,1680554623
132,tilichiki,60.4667,166.1,260.84,93,100,5.09,RU,1680554623
133,ankazoabo,-22.2833,44.5167,294.75,85,1,0.86,MG,1680554624
134,codrington,-38.2667,141.9667,283.52,91,49,1.67,AU,1680554624
135,kipini,-2.5257,40.5262,301.31,79,35,4.81,KE,1680554625
136,tateyama,34.9833,139.8667,283.44,62,0,4.68,JP,1680554625
137,mahebourg,-20.4081,57.7,298.85,88,20,1.54,MU,1680554625
138,biltine,14.5333,20.9167,303.87,14,12,1.97,TD,1680554625
139,portland,45.5234,-122.6762,282.38,78,75,3.6,US,1680554014
140,eureka,40.8021,-124.1637,282.7,74,94,4.02,US,1680554625
141,jalu,29.0331,21.5482,292.2,31,0,3.69,LY,1680554625
142,jamestown,42.097,-79.2353,290.95,39,0,8.23,US,1680554549
143,longyearbyen,78.2186,15.6401,261.06,72,100,9.77,SJ,1680554626
144,nelson bay,-32.7167,152.15,292.59,97,99,4.47,AU,1680554626
145,vestmannaeyjar,63.4427,-20.2734,281.51,95,100,14.39,IS,1680554626
146,yellowknife,62.456,-114.3525,263.44,57,75,0.0,CA,1680554626
147,pierre,44.3683,-100.351,276.96,62,0,3.09,US,1680554626
148,ixtapa,20.7,-105.2,298.72,69,20,6.17,MX,1680554627
149,salinas,36.6777,-121.6555,288.7,52,0,10.29,US,1680554612
150,coruripe,-10.1256,-36.1756,299.53,76,100,3.47,BR,1680554545
151,katsuura,35.1333,140.3,283.39,65,0,4.78,JP,1680554436
152,saratoga springs,43.0831,-73.7846,290.88,33,87,2.68,US,1680554375
153,makakilo city,21.3469,-158.0858,299.33,67,0,5.14,US,1680554627
154,saint george,37.1041,-113.5841,290.48,23,20,14.4,US,1680554627
155,kuminskiy,58.6667,66.5667,271.88,97,99,1.05,RU,1680554627
156,itupeva,-23.1531,-47.0578,301.0,51,20,4.12,BR,1680554627
157,basco,20.4487,121.9702,296.87,66,8,8.6,PH,1680554627
158,biak,-0.9131,122.8766,296.94,91,100,2.27,ID,1680554628
159,kurilsk,45.2333,147.8833,273.31,59,40,1.23,RU,1680554628
160,flin flon,54.7682,-101.865,264.06,41,20,3.09,CA,1680554628
161,lompoc,34.6391,-120.4579,288.58,53,20,12.86,US,1680554628
162,landeck,47.1301,10.5636,276.56,99,100,0.59,AT,1680554628
163,saint anthony,45.0205,-93.218,279.82,59,0,5.14,US,1680554629
164,nuevo progreso,23.1667,-97.95,302.53,55,95,3.58,MX,1680554629
165,hithadhoo,-0.6,73.0833,301.04,74,100,5.14,MV,1680554629
166,klaksvik,62.2266,-6.589,281.66,90,100,10.96,FO,1680554629
167,puerto ayora,-0.7393,-90.3518,304.13,88,100,3.13,EC,1680554630
168,koslan,63.4564,48.8989,264.17,90,25,3.49,RU,1680554630
169,ancud,-41.8697,-73.8203,287.2,73,6,2.69,CL,1680554630
170,port alfred,-33.5906,26.891,291.03,84,57,3.13,ZA,1680554630
171,caravelas,-17.7125,-39.2481,297.56,81,100,4.05,BR,1680554630
172,port hedland,-20.3167,118.5667,299.18,89,10,2.57,AU,1680554630
173,kysyl-syr,63.8986,122.7617,261.33,99,100,1.33,RU,1680554630
174,forrest city,35.0081,-90.7898,296.73,83,99,4.94,US,1680554405
175,georgetown,5.4112,100.3354,298.12,94,20,0.0,MY,1680554592
176,port lincoln,-34.7333,135.8667,290.75,73,37,2.42,AU,1680554630
177,namatanai,-3.6667,152.4333,299.71,78,99,1.52,PG,1680554631
178,husavik,66.0449,-17.3389,276.44,94,100,4.33,IS,1680554631
179,havre-saint-pierre,50.2334,-63.5986,270.35,68,0,11.32,CA,1680554631
180,tondano,1.3038,124.9112,293.2,92,91,1.09,ID,1680554631
181,yerbogachen,61.2767,108.0108,267.56,94,100,5.92,RU,1680554632
182,port-gentil,-0.7193,8.7815,300.53,77,100,3.24,GA,1680554632
183,umm lajj,25.0213,37.2685,297.15,43,31,2.72,SA,1680554632
184,meulaboh,4.1363,96.1285,297.56,88,94,1.99,ID,1680554632
185,bathsheba,13.2167,-59.5167,301.49,65,75,7.72,BB,1680554632
186,ulladulla,-35.35,150.4667,283.58,83,44,1.68,AU,1680554632
187,cape town,-33.9258,18.4232,290.99,85,20,1.03,ZA,1680554400
188,mikuni,36.2171,136.1519,278.1,77,4,1.81,JP,1680554632
189,kaitangata,-46.2817,169.8464,286.42,74,64,2.96,NZ,1680554632
190,xichang,27.8964,102.2634,283.98,59,0,0.74,CN,1680554632
191,nacala,-14.5428,40.6728,296.34,97,81,3.19,MZ,1680554633
192,anzio,41.4853,12.6179,285.93,60,100,2.7,IT,1680554633
193,sinazongwe,-17.2614,27.4618,296.51,67,39,1.08,ZM,1680554633
194,assiniboia,49.6334,-105.9845,265.05,62,100,3.09,CA,1680554633
195,pisco,-13.7,-76.2167,301.18,69,0,9.26,PE,1680554633
196,tazovskiy,67.4667,78.7,245.46,97,38,4.05,RU,1680554633
197,esperance,-33.8667,121.9,291.88,84,98,2.46,AU,1680554633
198,hanna,51.6334,-111.9018,268.63,82,100,3.13,CA,1680554633
199,nantucket,41.2835,-70.0995,283.23,68,0,7.72,US,1680554634
200,rawson,-43.3002,-65.1023,294.36,29,0,1.73,AR,1680554419
201,ouango,4.3133,22.5552,295.95,85,91,0.76,CF,1680554634
202,tuatapere,-46.1333,167.6833,285.48,81,79,1.82,NZ,1680554634
203,ondangwa,-17.9167,15.95,297.51,50,41,3.26,NA,1680554634
204,nybro,56.7446,15.9071,270.95,83,25,1.61,SE,1680554634
205,yulara,-25.2406,130.9889,294.8,42,93,3.07,AU,1680554635
206,bonfim,3.0833,-59.95,309.71,24,55,4.14,BR,1680554635
207,port macquarie,-31.4333,152.9167,288.65,93,21,3.19,AU,1680554599
208,general jose eduvigis diaz,-27.1667,-58.4167,306.17,22,39,1.22,PY,1680554635
209,cascais,38.6979,-9.4215,288.85,79,20,5.36,PT,1680554635
210,itarema,-2.9248,-39.9167,298.63,81,77,2.51,BR,1680554635
211,rio grande,-32.035,-52.0986,298.21,67,68,4.52,BR,1680554635
212,sarangani,5.4033,125.4636,300.12,76,89,0.92,PH,1680554636
213,fiche,9.8,38.7333,285.33,73,95,0.33,ET,1680554636
214,wahiawa,21.5028,-158.0236,298.33,72,9,3.57,US,1680554636
215,tuktoyaktuk,69.4541,-133.0374,255.15,71,75,0.0,CA,1680554636
216,derzhavinsk,51.1,66.3167,278.35,58,10,3.95,KZ,1680554636
217,aranos,-24.1333,19.1167,295.08,26,15,5.34,NA,1680554636
218,adrar,20.5022,-10.0711,299.55,6,0,1.87,MR,1680554636
219,isangel,-19.55,169.2667,300.89,79,44,2.9,VU,1680554636
220,mount isa,-20.7333,139.5,294.02,30,30,3.6,AU,1680554637
221,vila do maio,15.1333,-23.2167,299.59,83,48,5.97,CV,1680554637
222,norman wells,65.282,-126.8329,269.17,80,75,1.03,CA,1680554637
223,mayo,38.8876,-76.5119,296.45,59,0,8.23,US,1680554569
224,grand gaube,-20.0064,57.6608,298.92,74,99,5.65,MU,1680554637
225,yar-sale,66.8333,70.8333,253.44,87,13,7.21,RU,1680554637
226,constitucion,-35.3333,-72.4167,291.65,58,100,6.87,CL,1680554637
227,castro,-24.7911,-50.0119,292.59,72,2,0.64,BR,1680554637
228,nhulunbuy,-12.2333,136.7667,299.49,94,100,0.0,AU,1680554638
229,los llanos de aridane,28.6585,-17.9182,291.55,85,20,8.23,ES,1680554638
230,kahului,20.8947,-156.47,298.06,76,75,5.14,US,1680554638
231,ampanihy,-24.7,44.75,295.84,86,53,3.46,MG,1680554638
232,tual,-5.6667,132.75,300.35,77,100,4.72,ID,1680554638
233,aklavik,68.2191,-135.0107,263.51,82,83,0.99,CA,1680554638
234,mitsamiouli,-11.3847,43.2844,300.61,75,52,2.08,KM,1680554639
235,valdemarpils,57.3707,22.5919,272.02,71,16,4.76,LV,1680554639
236,dangtu,31.5723,118.4928,287.18,92,100,4.42,CN,1680554639
237,alice springs,-23.7,133.8833,289.9,94,75,0.0,AU,1680554639
238,nanortalik,60.1432,-45.2371,274.94,84,100,1.59,GL,1680554639
239,hantsport,45.0668,-64.1654,281.07,36,78,2.68,CA,1680554639
240,safaga,26.7292,33.9365,297.3,35,75,1.62,EG,1680554639
241,gravelbourg,49.8834,-106.5512,265.3,86,100,3.31,CA,1680554639
242,inhambupe,-11.7844,-38.3531,298.95,69,76,4.98,BR,1680554640
243,sungaipenuh,-2.0833,101.3833,290.26,96,95,0.37,ID,1680554640
244,harper,4.375,-7.7169,299.65,85,40,2.98,LR,1680554640
245,manokwari,-0.8667,134.0833,298.92,79,100,0.78,ID,1680554640
246,paamiut,61.994,-49.6678,274.81,84,100,3.77,GL,1680554640
247,buraydah,26.326,43.975,291.4,16,8,4.28,SA,1680554640
248,mar del plata,-38.0023,-57.5575,292.56,70,75,2.06,AR,1680554544
249,cabo san lucas,22.8909,-109.9124,304.32,30,100,5.14,MX,1680554641
250,tabory,58.5198,64.5495,275.43,90,70,0.72,RU,1680554641
251,naryan-mar,67.6713,53.087,258.69,96,10,3.51,RU,1680554641
252,saldanha,-33.0117,17.9442,287.18,88,12,3.09,ZA,1680554641
253,kitim,32.4383,35.8956,289.44,27,0,6.39,JO,1680554641
254,san matias,-16.3667,-58.4,301.75,72,30,2.24,BO,1680554642
255,palmer,42.1584,-72.3287,287.36,36,20,9.26,US,1680554642
256,flinders,-34.5833,150.8552,288.81,87,34,0.89,AU,1680554642
257,east london,-33.0153,27.9116,292.16,70,37,7.43,ZA,1680554642
258,bonanza,14.0289,-84.591,307.31,28,39,3.11,NI,1680554642
259,dali,25.7,100.1833,280.65,83,9,2.56,CN,1680554642
260,corinto,37.9407,22.9573,287.53,85,64,2.19,GR,1680554643
261,sayyan,15.1718,44.3244,287.57,70,29,0.68,YE,1680554643
262,saurimo,-9.6608,20.3916,292.64,92,93,1.16,AO,1680554645
263,kinablangan,7.6947,126.5503,298.16,86,96,3.6,PH,1680554646
264,saskylakh,71.9167,114.0833,251.13,97,97,5.13,RU,1680554646
265,oranjemund,-28.55,16.4333,289.05,85,0,6.33,NA,1680554646
266,road town,18.4167,-64.6167,301.2,57,40,5.14,VG,1680554646
267,talnakh,69.4865,88.3972,239.51,99,66,2.37,RU,1680554646
268,grindavik,63.8424,-22.4338,282.12,100,100,14.92,IS,1680554647
269,ilulissat,69.2167,-51.1,264.16,73,40,8.75,GL,1680554647
270,acapulco,16.8634,-99.8901,304.05,55,40,5.66,MX,1680554622
271,hervey bay,-25.2986,152.8535,294.25,88,68,5.54,AU,1680554647
272,guhagar,17.4842,73.1929,295.37,88,8,2.17,IN,1680554647
273,kavarna,43.4333,28.3333,282.83,82,100,6.94,BG,1680554647
274,astana,51.1801,71.446,271.12,69,0,5.0,KZ,1680554515
275,xam nua,20.4197,104.0439,291.9,40,2,1.51,LA,1680554647
276,nome,64.5011,-165.4064,261.57,85,75,1.54,US,1680554648
277,quatre cocos,-20.2078,57.7625,298.76,79,100,3.76,MU,1680554648
278,cherskiy,68.75,161.3,253.55,82,100,4.58,RU,1680554648
279,komsomolskiy,40.4272,71.7189,287.55,67,75,4.12,UZ,1680554648
280,mastic beach,40.7668,-72.8521,286.23,68,0,7.2,US,1680554649
281,taltal,-25.4,-70.4833,294.94,81,44,1.67,CL,1680554649
282,west bay,19.3667,-81.4167,303.19,62,20,4.63,KY,1680554649
283,pangnirtung,66.1451,-65.7125,261.15,56,0,2.06,CA,1680554649
284,lagoa,39.05,-27.9833,287.65,73,98,6.02,PT,1680554649
285,vila velha,-20.3297,-40.2925,299.23,64,75,4.63,BR,1680554650
286,bandarbeyla,9.4942,50.8122,300.44,74,19,5.05,SO,1680554650
287,hovd,48.0056,91.6419,263.73,19,7,1.58,MN,1680554650
288,dicabisagan,17.0818,122.4157,296.46,87,99,2.27,PH,1680554650
289,banyo,6.75,11.8167,297.49,29,99,1.63,CM,1680554651
290,chipinge,-20.1883,32.6236,288.27,94,4,1.6,ZW,1680554651
291,san patricio,28.017,-97.5169,308.8,53,72,7.41,US,1680554651
292,guerrero negro,27.9769,-114.0611,290.94,58,70,10.43,MX,1680554651
293,iquique,-20.2208,-70.1431,300.17,79,34,3.14,CL,1680554651
294,beaupre,47.0443,-70.8953,277.96,78,100,1.54,CA,1680554652
295,bengkulu,-3.8004,102.2655,296.64,92,100,2.27,ID,1680554652
296,kurchatov,51.6601,35.6521,281.46,83,97,2.07,RU,1680554652
297,belmonte,-15.8631,-38.8828,298.61,80,66,4.58,BR,1680554638
298,tamworth,52.634,-1.6959,280.29,73,12,3.28,GB,1680554427
299,srivardhan,18.0333,73.0167,296.97,81,2,2.24,IN,1680554652
300,amapa,1.0,-52.0,298.3,82,100,0.99,BR,1680554556
301,awjilah,29.1081,21.2869,292.09,30,0,3.9,LY,1680554652
302,salalah,17.0151,54.0924,304.2,19,20,5.14,OM,1680554562
303,ponta delgada,37.7333,-25.6667,287.55,72,20,3.6,PT,1680554653
304,portoferraio,42.8115,10.3146,285.46,53,1,11.12,IT,1680554653
305,santa cruz,-17.8,-63.1667,305.18,58,40,7.72,BO,1680554653
306,sao joao do paraiso,-15.3136,-42.0144,293.73,85,100,1.87,BR,1680554653
307,gondanglegi,-7.7479,112.0132,296.05,86,100,2.29,ID,1680554653
308,hastings,50.8552,0.5729,279.77,35,10,7.0,GB,1680554654
309,billings,45.7833,-108.5007,281.09,43,75,5.66,US,1680554400
310,wanxian,30.8039,108.3897,291.32,88,100,1.27,CN,1680554654
311,bambanglipuro,-7.95,110.2833,296.61,91,100,2.38,ID,1680554654
312,humaita,-7.5061,-63.0208,299.82,89,54,0.94,BR,1680554654
313,luganville,-15.5333,167.1667,301.38,79,66,4.43,VU,1680554654
314,port said,31.2565,32.2841,291.14,88,0,4.12,EG,1680554654
315,lander,42.833,-108.7307,271.54,87,100,5.14,US,1680554654
316,bebington,53.35,-3.0167,282.3,72,0,2.57,GB,1680554655
317,jaque,7.5175,-78.1703,301.54,77,38,0.53,PA,1680554655
318,luderitz,-26.6481,15.1594,290.21,70,0,7.96,NA,1680554655
319,sayat,38.7839,63.8803,284.08,55,22,3.17,TM,1680554655
320,lashio,22.9333,97.75,288.69,55,3,1.07,MM,1680554655
321,guangyuan,32.442,105.823,281.49,87,97,3.08,CN,1680554656
322,firminy,45.3873,4.2907,277.43,81,100,4.12,FR,1680554656
323,carquefou,47.2982,-1.4902,280.19,82,0,2.06,FR,1680554656
324,comodoro rivadavia,-45.8667,-67.5,294.07,28,0,7.2,AR,1680554521
325,victoria point,-27.5833,153.3,293.12,93,75,3.37,AU,1680554656
326,sola,-13.8833,167.55,301.12,75,17,7.92,VU,1680554656
327,ocos,14.5094,-92.1933,306.25,61,40,5.59,GT,1680554656
328,nakonde,-9.3421,32.745,287.56,98,63,2.09,ZM,1680554657
329,beira,-19.8436,34.8389,296.2,100,0,1.03,MZ,1680554657
330,nsanje,-16.92,35.262,294.76,97,68,1.33,MW,1680554657
331,carnarvon,-24.8667,113.6333,297.02,74,8,6.13,AU,1680554657
332,cody,44.5263,-109.0565,274.77,48,40,4.63,US,1680554657
333,rundu,-17.9333,19.7667,293.29,59,35,0.66,NA,1680554657
334,kedrovyy,56.1667,91.8167,273.38,95,100,4.83,RU,1680554657
335,volchikha,52.0333,80.3833,270.53,69,0,1.96,RU,1680554658
336,tessalit,20.1986,1.0114,300.73,6,13,3.62,ML,1680554658
337,itoman,26.1247,127.6694,293.58,64,40,7.2,JP,1680554658
338,coquimbo,-29.9533,-71.3436,292.0,77,20,6.69,CL,1680554658
339,pangkalanbuun,-2.6833,111.6167,295.83,97,100,1.18,ID,1680554658
340,vinh long,10.25,105.9667,296.14,90,1,1.4,VN,1680554658
341,seymchan,62.8833,152.4333,248.85,100,90,1.03,RU,1680554658
342,roald,62.5833,6.1333,278.33,75,40,3.6,NO,1680554658
343,panvel,18.9833,73.1,299.19,69,4,0.9,IN,1680554659
344,scarborough,54.2797,-0.4044,277.68,85,20,3.13,GB,1680554659
345,spirit river,55.7833,-118.8361,273.39,64,67,1.97,CA,1680554591
346,burns lake,54.2331,-125.7533,274.83,57,84,1.37,CA,1680554409
347,bosaso,11.2842,49.1816,300.9,74,8,1.16,SO,1680554659
348,hamilton,39.1834,-84.5333,295.92,57,0,5.14,US,1680554659
349,bindura,-17.3019,31.3306,289.32,86,58,0.7,ZW,1680554660
350,vila franca do campo,37.7167,-25.4333,287.38,75,69,2.73,PT,1680554660
351,esperantinopolis,-4.8667,-44.7083,296.93,96,77,0.77,BR,1680554661
352,northam,51.0333,-4.2167,279.6,86,23,4.12,GB,1680554661
353,fernie,49.5,-115.0687,274.53,58,100,1.27,CA,1680554661
354,san fernando,15.0286,120.6898,300.0,84,81,2.28,PH,1680554661
355,ponezhukay,44.8876,39.3855,282.5,93,66,1.41,RU,1680554662
356,ibra,22.6906,58.5334,296.18,34,3,2.48,OM,1680554662
357,chuy,-33.6971,-53.4616,290.91,74,99,2.05,UY,1680554662
358,wajima,37.4,136.9,282.49,75,5,2.59,JP,1680554662
359,stonewall,50.1344,-97.3268,268.72,84,100,5.85,CA,1680554663
360,flobecq,50.7526,3.7315,278.61,66,0,3.97,BE,1680554663
361,sompeta,18.9333,84.6,299.41,88,35,5.34,IN,1680554663
362,agadir,30.4202,-9.5982,291.4,62,0,1.88,MA,1680554663
363,airai,-8.9266,125.4092,287.26,87,99,0.91,TL,1680554663
364,hasaki,35.7333,140.8333,278.83,57,0,4.89,JP,1680554663
365,zalantun,48.0,122.7167,271.39,26,72,6.97,CN,1680554663
366,banepa,27.6298,85.5214,286.55,82,20,1.54,NP,1680554664
367,januaria,-15.4833,-44.3667,295.13,84,99,3.55,BR,1680554664
368,westport,41.1415,-73.3579,288.52,49,0,7.2,US,1680554600
369,kloulklubed,7.0419,134.2556,297.43,78,79,4.65,PW,1680554665
370,sangar,63.9242,127.4739,260.25,93,100,2.05,RU,1680554665
371,magdagachi,53.45,125.8,264.2,84,68,4.12,RU,1680554665
372,adwa,14.1646,38.8955,291.2,45,52,1.72,ET,1680554665
373,chernyshevsk,52.5243,117.0174,264.44,59,8,4.28,RU,1680554665
374,trat,12.5,102.5,297.48,81,21,0.15,TH,1680554665
375,calbuco,-41.768,-73.1273,291.71,62,3,1.47,CL,1680554665
376,nchelenge,-9.3451,28.734,294.13,89,100,2.48,ZM,1680554665
377,storslett,69.7678,21.0247,275.15,93,100,1.54,NO,1680554666
378,trairi,-3.2778,-39.2689,298.38,83,38,1.92,BR,1680554430
379,blackwater,-23.5833,148.8833,294.2,81,8,2.57,AU,1680554666
380,esmeraldas,-19.7625,-44.3139,299.63,84,100,1.27,BR,1680554666
381,archena,38.1163,-1.3004,287.38,68,100,2.19,ES,1680554666
382,piraquara,-25.4417,-49.0633,298.17,47,0,2.06,BR,1680554666
383,sorland,67.667,12.6934,276.07,73,78,7.21,NO,1680554667
384,poum,-20.2333,164.0167,300.17,80,66,4.59,NC,1680554667
385,el tigre,8.8875,-64.2454,305.32,37,82,6.05,VE,1680554667
386,tacoronte,28.4769,-16.4102,290.01,76,40,13.38,ES,1680554667
387,ende,-8.8432,121.6623,297.76,89,86,0.79,ID,1680554667
388,porto walter,-8.2686,-72.7439,298.96,94,60,0.88,BR,1680554667
389,ojhar,20.1,73.9333,295.99,50,1,2.03,IN,1680554668
390,rio gallegos,-51.6226,-69.2181,295.18,21,75,13.89,AR,1680554491
391,crossville,35.949,-85.0269,286.51,71,100,3.09,US,1680554564
392,mikhaylovka,50.06,43.2379,284.1,80,92,2.99,RU,1680554668
393,monrovia,6.3005,-10.7969,299.02,81,25,2.66,LR,1680554668
394,iqaluit,63.7506,-68.5145,259.0,71,40,6.17,CA,1680554668
395,cockburn town,21.4612,-71.1419,298.52,80,0,7.42,TC,1680554669
396,tottori,35.5,134.2333,280.67,47,22,2.31,JP,1680554669
397,edd,13.9297,41.6925,299.33,75,4,1.92,ER,1680554669
398,luis correia,-2.8792,-41.6669,298.29,88,94,2.69,BR,1680554669
399,avera,33.194,-82.5271,293.88,70,96,3.34,US,1680554669
400,ostrovnoy,68.0531,39.5131,265.18,85,18,8.55,RU,1680554669
401,sinnamary,5.3833,-52.95,299.6,71,67,3.69,GF,1680554670
402,witu,-2.3889,40.4382,301.24,82,25,3.07,KE,1680554670
403,tekeli,44.83,78.8239,277.42,38,0,4.76,KZ,1680554670
404,praia da vitoria,38.7333,-27.0667,289.29,77,20,3.5,PT,1680554670
405,charters towers,-20.1,146.2667,294.97,94,21,1.69,AU,1680554671
406,ribeira grande,38.5167,-28.7,288.37,72,40,5.66,PT,1680554671
407,ambilobe,-13.2,49.05,296.03,96,54,1.38,MG,1680554671
408,alofi,-19.0595,-169.9187,300.09,83,75,5.66,NU,1680554671
409,praya,14.9215,-23.5087,299.45,50,21,2.06,CV,1680554671
410,lahaina,20.8783,-156.6825,298.73,81,21,2.87,US,1680554415
411,klungkung,-8.5333,115.4,298.53,92,100,1.67,ID,1680554671
412,kumluca,36.3703,30.2869,288.39,61,36,2.6,TR,1680554671
413,cap malheureux,-19.9842,57.6142,298.97,74,97,5.72,MU,1680554672
414,kailua,21.4022,-157.7394,300.14,73,75,3.6,US,1680554672
415,san jeronimo,-11.9472,-75.2829,289.01,62,98,2.56,PE,1680554672
416,abu kamal,34.4506,40.9171,292.46,45,5,3.56,SY,1680554673
417,jeremie,18.65,-74.1167,299.58,72,40,2.31,HT,1680554673
418,nanaimo,49.1663,-123.936,282.71,65,40,7.72,CA,1680554556
419,san ramon de la nueva oran,-23.1322,-64.326,299.52,65,99,2.41,AR,1680554673
420,sao joao da barra,-21.6403,-41.0511,300.2,75,100,4.68,BR,1680554673
421,sitka,57.0531,-135.33,278.09,65,20,2.06,US,1680554673
422,paris,48.8534,2.3488,282.67,63,0,4.12,FR,1680554642
423,gold coast,-28.0,153.4333,293.17,92,100,4.12,AU,1680554674
424,ewo,-0.8725,14.8206,297.82,80,86,1.2,CG,1680554674
425,fairbanks,64.8378,-147.7164,271.53,65,20,5.14,US,1680554637
426,tagusao,9.1924,117.8141,298.62,82,10,0.93,PH,1680554674
427,nichinan,31.6,131.3667,286.97,68,97,4.15,JP,1680554674
428,pafos,34.7667,32.4167,287.03,77,0,2.06,CY,1680554479
429,somerset east,-32.7217,25.588,286.13,80,75,0.65,ZA,1680554674
430,kulhudhuffushi,6.6221,73.07,301.27,66,80,2.54,MV,1680554674
431,karratha,-20.7377,116.8463,300.77,75,10,3.19,AU,1680554675
432,bacolod,10.6667,122.95,298.14,81,99,2.35,PH,1680554675
433,sawtell,-30.3833,153.1,291.16,88,100,3.6,AU,1680554675
434,asyut,27.181,31.1837,296.25,11,4,0.23,EG,1680554554
435,qingdao,36.0986,120.3719,285.93,94,75,7.0,CN,1680554675
436,ypsilanti,42.2412,-83.613,288.91,70,75,5.66,US,1680554431
437,sampang,-7.1872,113.2394,300.34,82,100,3.61,ID,1680554675
438,saint-ambroise,48.5501,-71.3324,273.45,93,100,1.54,CA,1680554675
439,onojo,33.5357,130.4786,286.01,49,100,2.06,JP,1680554676
440,olafsvik,64.8945,-23.7142,278.68,93,100,10.03,IS,1680554676
441,oksfjord,70.2396,22.3479,275.25,93,99,4.3,NO,1680554676
442,bardiyah,31.7561,25.0865,289.59,81,1,5.05,LY,1680554676
443,mogadishu,2.0371,45.3438,301.19,75,60,5.98,SO,1680554634
444,warri,5.5167,5.75,298.08,91,100,1.82,NG,1680554676
445,obo,5.3998,26.4869,297.22,35,3,2.24,CF,1680554676
446,kinkala,-4.3614,14.7644,295.15,95,91,0.44,CG,1680554676
447,songjianghe,42.1859,127.479,279.57,65,100,0.75,CN,1680554676
448,namibe,-15.1961,12.1522,298.21,67,95,2.59,AO,1680554676
449,suntar,62.1444,117.6319,267.49,95,100,3.19,RU,1680554677
450,skvyra,49.7318,29.6657,274.74,97,100,4.53,UA,1680554677
451,epinal,48.1833,6.45,276.57,66,3,4.84,FR,1680554677
452,dubai,25.2582,55.3047,295.29,60,0,3.09,AE,1680554677
453,wajir,1.7471,40.0573,302.83,56,100,4.36,KE,1680554677
454,gonen,40.1049,27.654,286.49,38,91,1.51,TR,1680554677
455,moindou,-21.6924,165.677,299.85,78,11,1.62,NC,1680554677
456,verkhnevilyuysk,63.4453,120.3167,262.93,97,100,1.66,RU,1680554677
457,carnot,4.9409,15.8665,297.94,56,73,1.15,CF,1680554678
458,talara,-4.5772,-81.2719,302.57,79,75,5.14,PE,1680554678
459,zarechnyy,53.2036,45.1923,285.55,1,100,2.0,RU,1680554678
460,auki,-8.7676,160.7034,300.42,79,95,1.54,SB,1680554678
461,marapanim,-0.7175,-47.6997,295.81,98,100,1.43,BR,1680554678
462,la ronge,55.1001,-105.2842,265.29,38,40,4.63,CA,1680554678
463,batsfjord,70.6345,29.7185,273.11,74,75,9.26,NO,1680554678
464,riyadh,24.6877,46.7219,290.23,18,1,2.53,SA,1680554401
465,betare oya,5.6,14.0833,300.36,42,100,1.1,CM,1680554678
466,aykhal,66.0,111.5,258.44,95,100,6.06,RU,1680554678
467,mersing,2.4312,103.8405,297.1,94,20,1.54,MY,1680554679
468,mujiayingzi,42.1167,118.7833,274.44,80,100,3.13,CN,1680554679
469,inhambane,-23.865,35.3833,295.73,82,0,3.48,MZ,1680554679
470,changji,44.0167,87.3167,271.59,43,0,1.0,CN,1680554679
471,lebu,-37.6167,-73.65,287.83,63,0,7.85,CL,1680554680
472,kuusamo,65.9667,29.1833,262.17,73,0,0.51,FI,1680554680
473,chickasha,35.0526,-97.9364,304.79,20,0,6.17,US,1680554680
474,nizhneudinsk,54.9076,99.0276,272.21,53,100,4.8,RU,1680554681
475,maragogi,-9.0122,-35.2225,299.27,75,84,3.81,BR,1680554681
476,daru,-9.0763,143.2092,297.9,90,100,1.45,PG,1680554681
477,mahajanga,-15.7167,46.3167,300.16,89,20,2.06,MG,1680554681
478,waipawa,-41.4122,175.5153,284.46,74,0,1.6,NZ,1680554681
479,sibu,2.3,111.8167,296.32,100,40,0.51,MY,1680554681
480,surt,31.2089,16.5887,290.37,56,1,7.88,LY,1680554681
481,sindgi,16.9167,76.2333,300.73,31,6,5.43,IN,1680554681
482,palencia,42.4167,-4.5,282.48,70,99,3.37,ES,1680554682
483,kota kinabalu,5.9749,116.0724,298.14,88,20,1.54,MY,1680554682
484,belebey,54.1167,54.1167,277.4,76,36,3.06,RU,1680554682
485,tougan,13.0667,-3.0667,305.83,8,16,3.23,BF,1680554682
486,agboville,5.928,-4.2132,297.76,95,87,0.67,CI,1680554682
487,trinidad,-14.8333,-64.9,306.14,55,40,3.09,BO,1680554682
488,mnogovershinnyy,53.9353,139.9242,271.63,97,100,2.46,RU,1680554682
489,moncao,42.0789,-8.4808,287.67,80,100,1.17,PT,1680554682
490,kropotkin,45.4375,40.5756,281.57,91,61,1.99,RU,1680554682
491,port shepstone,-30.7414,30.455,293.28,79,97,7.75,ZA,1680554682
492,almaznyy,48.0448,40.045,281.8,87,99,5.15,RU,1680554682
493,yenotayevka,47.2456,47.0281,282.5,73,100,4.71,RU,1680554683
494,atasu,48.6814,71.6433,274.44,46,0,6.37,KZ,1680554683
495,teya,60.3778,92.6267,263.46,96,53,1.73,RU,1680554683
496,tripoli,32.8752,13.1875,289.48,60,6,5.76,LY,1680554683
497,reyes,-14.3167,-67.3833,305.24,70,75,2.06,BO,1680554683
498,bundaberg,-24.85,152.35,292.71,95,56,1.34,AU,1680554683
499,tarauaca,-8.1614,-70.7656,298.96,95,94,1.43,BR,1680554683
500,garden city,42.3256,-83.331,289.12,67,100,5.66,US,1680554683
501,longonjo,-12.9067,15.2533,289.96,92,45,1.3,AO,1680554683
502,panalingaan,8.7842,117.4231,298.45,84,12,0.86,PH,1680554684
503,miri,4.4148,114.0089,297.23,94,40,3.09,MY,1680554684
504,padilla,3.2204,-76.3139,303.91,58,81,0.57,CO,1680554684
505,xining,36.6167,101.7667,273.5,83,87,0.21,CN,1680554684
506,birjand,32.8663,59.2211,279.41,31,0,0.0,IR,1680554685
507,salinopolis,-0.6136,-47.3561,296.5,95,100,2.16,BR,1680554477
508,quixada,-4.9714,-39.0153,297.23,90,100,1.7,BR,1680554436
509,santa isabel do rio negro,-0.4139,-65.0192,302.91,65,93,2.14,BR,1680554685
510,bijie,27.3125,105.2942,284.66,90,36,2.5,CN,1680554685
511,cabra,37.4725,-4.4421,287.12,23,91,1.57,ES,1680554685
512,strezhevoy,60.7333,77.5889,268.98,85,100,4.01,RU,1680554685
513,ayan,56.45,138.1667,266.99,95,100,4.92,RU,1680554685
514,kruisfontein,-34.0033,24.7314,289.75,85,100,5.89,ZA,1680554685
515,japura,-0.3167,102.35,296.19,99,100,1.24,ID,1680554686
516,dolores,-36.3132,-57.6792,291.34,81,88,1.79,AR,1680554686
517,atambua,-9.1061,124.8925,295.25,88,100,1.8,ID,1680554687
518,uporovo,56.3109,66.2693,275.1,78,5,2.84,RU,1680554687
519,san cristobal,7.7669,-72.225,300.25,42,50,2.44,VE,1680554687
520,warragul,-38.1667,145.9333,288.73,78,35,0.9,AU,1680554687
521,broome,42.2506,-75.833,290.75,39,76,5.81,US,1680554687
522,abancay,-13.6339,-72.8814,294.38,57,85,2.85,PE,1680554687
523,inta,66.0317,60.1659,254.35,92,5,2.07,RU,1680554687
524,muli,2.9167,73.5667,301.0,70,14,2.38,MV,1680554687
525,haimen,23.1935,116.6142,291.09,94,100,3.88,CN,1680554687
526,nuuk,64.1835,-51.7216,272.49,69,98,7.72,GL,1680554687
527,san vicente,-26.6167,-54.1333,298.28,47,6,0.19,AR,1680554496
528,kieta,-6.2167,155.6333,300.2,82,73,0.94,PG,1680554687
529,morondava,-20.2833,44.2833,299.58,82,0,2.06,MG,1680554687
530,ahuimanu,21.4447,-157.8378,299.99,71,75,5.14,US,1680554688
531,slave lake,55.2834,-114.769,273.14,64,75,2.57,CA,1680554688
532,dubbo,-32.25,148.6167,288.22,82,75,3.6,AU,1680554688
533,phan thiet,10.9333,108.1,297.54,90,8,1.22,VN,1680554688
534,erzin,36.9559,36.2,288.51,64,42,2.94,TR,1680554688
535,jiangyou,31.7667,104.7167,286.26,81,100,0.74,CN,1680554688
536,guiyang,26.5833,106.7167,291.42,77,0,3.0,CN,1680554689
537,ilinskiy,55.619,38.1182,281.36,100,75,2.0,RU,1680554689
538,tupik,54.4253,119.9327,261.78,73,67,4.55,RU,1680554689
539,takoradi,4.8845,-1.7554,300.57,81,97,3.7,GH,1680554689
540,manado,1.487,124.8455,297.58,100,40,1.03,ID,1680554689
541,te anau,-45.4167,167.7167,284.36,82,19,0.05,NZ,1680554689
542,kaohsiung,22.6163,120.3133,297.12,74,40,1.03,TW,1680554689
543,lodja,-3.4833,23.4333,292.16,97,100,0.44,CD,1680554689
544,inuvik,68.3499,-133.7218,260.63,61,20,2.57,CA,1680554689
545,mecca,21.4267,39.8261,297.36,40,91,1.57,SA,1680554601
546,shelburne,44.0787,-80.2041,283.4,54,78,5.03,CA,1680554690
